[
  {
    "name": "ngAtlanta",
    "url": "http://ng-atl.org",
    "startDate": "2019-01-09",
    "endDate": "2019-01-12",
    "tags": [{ "id": "cjqv0ee5vr85u0950duq9u6tp", "name": "javascript" }],
    "location": {
      "city": "Atlanta",
      "country": "U.S.A.",
      "address": "Atlanta U.S.A.",
      "countryCode": "US",
      "coordinates": { "latitude": "33.749", "longitude": "-84.38798" }
    }
  },
  {
    "name": "Covalence",
    "url": "http://www.covalenceconf.com",
    "startDate": "2019-01-16",
    "endDate": "2019-01-16",
    "tags": [{ "id": "cjqv0ee5vr85u0950duq9u6tp", "name": "javascript" }],
    "location": {
      "city": "San Francisco",
      "country": "U.S.A.",
      "address": "San Francisco U.S.A.",
      "countryCode": "AR",
      "coordinates": { "latitude": "-31.42797", "longitude": "-62.08266" }
    }
  },
  {
    "name": "ForwardJS",
    "url": "https://forwardjs.com",
    "startDate": "2019-01-24",
    "endDate": "2019-01-24",
    "tags": [{ "id": "cjqv0ee5vr85u0950duq9u6tp", "name": "javascript" }],
    "location": {
      "city": "San Francisco",
      "country": "U.S.A.",
      "address": "San Francisco U.S.A.",
      "countryCode": "AR",
      "coordinates": { "latitude": "-31.42797", "longitude": "-62.08266" }
    }
  },
  {
    "name": "React Iran",
    "url": "http://reactiran.com",
    "startDate": "2019-01-31",
    "endDate": "2019-01-31",
    "tags": [{ "id": "cjqv0ee5vr85u0950duq9u6tp", "name": "javascript" }],
    "location": {
      "city": "Tehran",
      "country": "Iran",
      "address": "Tehran Iran",
      "countryCode": "IR",
      "coordinates": { "latitude": "35.69439", "longitude": "51.42151" }
    }
  },
  {
    "name": "c't <webdev>",
    "url": "https://ctwebdev.de",
    "startDate": "2019-02-06",
    "endDate": "2019-02-08",
    "tags": [{ "id": "cjqv0ee5vr85u0950duq9u6tp", "name": "javascript" }],
    "location": {
      "city": "Köln",
      "country": "Germany",
      "address": "Köln Germany",
      "countryCode": "DE",
      "coordinates": { "latitude": "50.93333", "longitude": "6.95" }
    }
  },
  {
    "name": "Pause Fest",
    "url": "https://pausefest.com.au/",
    "startDate": "2019-02-06",
    "endDate": "2019-02-08",
    "tags": [{ "id": "cjqv0ee5vr85u0950duq9u6tp", "name": "javascript" }],
    "location": {
      "city": "Melbourne",
      "country": "Australia",
      "address": "Melbourne Australia",
      "countryCode": "AU",
      "coordinates": { "latitude": "-37.814", "longitude": "144.96332" }
    }
  },
  {
    "name": "JSConf Hawaii",
    "url": "https://www.jsconfhi.com",
    "startDate": "2019-02-07",
    "endDate": "2019-02-08",
    "tags": [{ "id": "cjqv0ee5vr85u0950duq9u6tp", "name": "javascript" }],
    "location": {
      "city": "Hawaii",
      "country": "U.S.A.",
      "address": "Hawaii U.S.A.",
      "countryCode": "US",
      "coordinates": { "latitude": "19.06861", "longitude": "-155.765" }
    }
  },
  {
    "name": "FrontFest",
    "url": "https://frontfest.es",
    "startDate": "2019-02-09",
    "endDate": "2019-02-09",
    "tags": [{ "id": "cjqv0ee5vr85u0950duq9u6tp", "name": "javascript" }],
    "location": {
      "city": "Madrid",
      "country": "Spain",
      "address": "Madrid Spain",
      "countryCode": "CO",
      "coordinates": { "latitude": "4.73245", "longitude": "-74.26419" }
    }
  },
  {
    "name": "Frontend Developer Love",
    "url": "http://www.frontenddeveloperlove.com/",
    "startDate": "2019-02-13",
    "endDate": "2019-02-15",
    "tags": [{ "id": "cjqv0ee5vr85u0950duq9u6tp", "name": "javascript" }],
    "location": {
      "city": "Amsterdam",
      "country": "Netherlands",
      "address": "Amsterdam Netherlands",
      "countryCode": "NL",
      "coordinates": { "latitude": "52.37403", "longitude": "4.88969" }
    }
  },
  {
    "name": "Vue.js Amsterdam",
    "url": "https://www.vuejs.amsterdam",
    "startDate": "2019-02-14",
    "endDate": "2019-02-15",
    "tags": [{ "id": "cjqv0ee5vr85u0950duq9u6tp", "name": "javascript" }],
    "location": {
      "city": "Amsterdam",
      "country": "Netherlands",
      "address": "Amsterdam Netherlands",
      "countryCode": "NL",
      "coordinates": { "latitude": "52.37403", "longitude": "4.88969" }
    }
  },
  {
    "name": "Agent Conf",
    "url": "https://www.agent.sh",
    "startDate": "2019-02-21",
    "endDate": "2019-02-24",
    "tags": [{ "id": "cjqv0ee5vr85u0950duq9u6tp", "name": "javascript" }],
    "location": {
      "city": "Dornbirn",
      "country": "Austria",
      "address": "Dornbirn Austria",
      "countryCode": "AT",
      "coordinates": { "latitude": "47.41427", "longitude": "9.74195" }
    }
  },
  {
    "name": "ng-India",
    "url": "https://www.ng-ind.com",
    "startDate": "2019-02-23",
    "endDate": "2019-02-23",
    "tags": [{ "id": "cjqv0ee5vr85u0950duq9u6tp", "name": "javascript" }],
    "location": {
      "city": "Gurgaon",
      "country": "India",
      "address": "Gurgaon India",
      "countryCode": "IN",
      "coordinates": { "latitude": "28.4601", "longitude": "77.02635" }
    }
  },
  {
    "name": "ReactFoo",
    "url": "https://reactfoo.in/2019",
    "startDate": "2019-03-01",
    "endDate": "2019-03-02",
    "tags": [{ "id": "cjqv0ee5vr85u0950duq9u6tp", "name": "javascript" }],
    "location": {
      "city": "Bengaluru",
      "country": "India",
      "address": "Bengaluru India",
      "countryCode": "IN",
      "coordinates": { "latitude": "12.97194", "longitude": "77.59369" }
    }
  },
  {
    "name": "JS Kongress",
    "url": "https://js-kongress.com",
    "startDate": "2019-03-11",
    "endDate": "2019-03-12",
    "tags": [{ "id": "cjqv0ee5vr85u0950duq9u6tp", "name": "javascript" }],
    "location": {
      "city": "Munich",
      "country": "Germany",
      "address": "Munich Germany",
      "countryCode": "DE",
      "coordinates": { "latitude": "48.13743", "longitude": "11.57549" }
    }
  },
  {
    "name": "EmberConf",
    "url": "http://emberconf.com",
    "startDate": "2019-03-18",
    "endDate": "2019-03-20",
    "tags": [{ "id": "cjqv0ee5vr85u0950duq9u6tp", "name": "javascript" }],
    "location": {
      "city": "Portland",
      "country": "U.S.A.",
      "address": "Portland U.S.A.",
      "countryCode": "AU",
      "coordinates": { "latitude": "-38.3462", "longitude": "141.60257" }
    }
  },
  {
    "name": "UpFront",
    "url": "http://upfrontconf.com",
    "startDate": "2019-03-22",
    "tags": [{ "id": "cjqv0ee5vr85u0950duq9u6tp", "name": "javascript" }],
    "location": {
      "city": "Manchester",
      "country": "U.K.",
      "address": "Manchester U.K.",
      "countryCode": "GB",
      "coordinates": { "latitude": "53.48095", "longitude": "-2.23743" }
    }
  },
  {
    "name": "VueConf US",
    "url": "http://us.vuejs.org",
    "startDate": "2019-03-25",
    "endDate": "2019-03-27",
    "tags": [{ "id": "cjqv0ee5vr85u0950duq9u6tp", "name": "javascript" }],
    "location": {
      "city": "Tampa",
      "country": "U.S.A.",
      "address": "Tampa U.S.A.",
      "countryCode": "US",
      "coordinates": { "latitude": "27.94752", "longitude": "-82.45843" }
    }
  },
  {
    "name": "Reactathon",
    "url": "https://www.reactathon.com",
    "startDate": "2019-03-30",
    "endDate": "2019-03-31",
    "tags": [{ "id": "cjqv0ee5vr85u0950duq9u6tp", "name": "javascript" }],
    "location": {
      "city": "San Francisco",
      "country": "U.S.A.",
      "address": "San Francisco U.S.A.",
      "countryCode": "AR",
      "coordinates": { "latitude": "-31.42797", "longitude": "-62.08266" }
    }
  },
  {
    "name": "#PerfMatters",
    "url": "https://perfmattersconf.com",
    "startDate": "2019-04-02",
    "endDate": "2019-04-03",
    "tags": [{ "id": "cjqv0ee5vr85u0950duq9u6tp", "name": "javascript" }],
    "location": {
      "city": "Redwood City",
      "country": "U.S.A.",
      "address": "Redwood City U.S.A.",
      "countryCode": "US",
      "coordinates": { "latitude": "37.48522", "longitude": "-122.23635" }
    }
  },
  {
    "name": "Frontend NE",
    "url": "https://2019.frontendne.co.uk",
    "startDate": "2019-04-03",
    "endDate": "2019-04-03",
    "tags": [{ "id": "cjqv0ee5vr85u0950duq9u6tp", "name": "javascript" }],
    "location": {
      "city": "Newcastle",
      "country": "U.K.",
      "address": "Newcastle U.K.",
      "countryCode": "AU",
      "coordinates": { "latitude": "-32.92715", "longitude": "151.77647" }
    }
  },
  {
    "name": "FrontCon",
    "url": "https://frontcon.lv",
    "startDate": "2019-04-03",
    "endDate": "2019-04-05",
    "tags": [{ "id": "cjqv0ee5vr85u0950duq9u6tp", "name": "javascript" }],
    "location": {
      "city": "Riga",
      "country": "Latvia",
      "address": "Riga Latvia",
      "countryCode": "LV",
      "coordinates": { "latitude": "56.946", "longitude": "24.10589" }
    }
  },
  {
    "name": "App.js Conf",
    "url": "https://appjs.co/",
    "startDate": "2019-04-04",
    "endDate": "2019-04-05",
    "tags": [{ "id": "cjqv0ee5vr85u0950duq9u6tp", "name": "javascript" }],
    "location": {
      "city": "Krakow",
      "country": "Poland",
      "address": "Krakow Poland",
      "countryCode": "PL",
      "coordinates": { "latitude": "19.945", "longitude": "50.065" }
    }
  },
  {
    "name": "JS Fest",
    "url": "http://jsfest.com.ua/indexe.html",
    "startDate": "2019-04-05",
    "endDate": "2019-04-06",
    "tags": [{ "id": "cjqv0ee5vr85u0950duq9u6tp", "name": "javascript" }],
    "location": {
      "city": "Kyiv",
      "country": "Ukraine",
      "address": "Kyiv Ukraine",
      "countryCode": "UA",
      "coordinates": { "latitude": "50.45466", "longitude": "30.5238" }
    }
  },
  {
    "name": "ForwardJS Ottawa",
    "url": "https://forwardjs.com/ottawa",
    "startDate": "2019-04-09",
    "endDate": "2019-04-12",
    "tags": [{ "id": "cjqv0ee5vr85u0950duq9u6tp", "name": "javascript" }],
    "location": {
      "city": "Ottawa",
      "country": "Canada",
      "address": "Ottawa Canada",
      "countryCode": "CA",
      "coordinates": { "latitude": "45.41117", "longitude": "-75.69812" }
    }
  },
  {
    "name": "Sencha Community Days",
    "url": "https://sencha-community-days.de/",
    "startDate": "2019-04-10",
    "endDate": "2019-04-11",
    "tags": [{ "id": "cjqv0ee5vr85u0950duq9u6tp", "name": "javascript" }],
    "location": {
      "city": "Karlsruhe",
      "country": "Germany",
      "address": "Karlsruhe Germany",
      "countryCode": "DE",
      "coordinates": { "latitude": "49.00937", "longitude": "8.40444" }
    }
  },
  {
    "name": "JSHeroes",
    "url": "https://jsheroes.io",
    "startDate": "2019-04-11",
    "endDate": "2019-04-12",
    "tags": [{ "id": "cjqv0ee5vr85u0950duq9u6tp", "name": "javascript" }],
    "location": {
      "city": "Cluj-Napoca",
      "country": "Romania",
      "address": "Cluj-Napoca Romania",
      "countryCode": "RO",
      "coordinates": { "latitude": "46.76667", "longitude": "23.6" }
    }
  },
  {
    "name": "ReasonConf",
    "url": "https://www.reason-conf.com/",
    "startDate": "2019-04-11",
    "endDate": "2019-04-13",
    "tags": [{ "id": "cjqv0ee5vr85u0950duq9u6tp", "name": "javascript" }],
    "location": {
      "city": "Vienna",
      "country": "Austria",
      "address": "Vienna Austria",
      "countryCode": "AT",
      "coordinates": { "latitude": "48.20849", "longitude": "16.37208" }
    }
  },
  {
    "name": "NativeScript Developer Day",
    "url": "https://nativescriptdevday.org",
    "startDate": "2019-04-11",
    "endDate": "2019-04-12",
    "tags": [{ "id": "cjqv0ee5vr85u0950duq9u6tp", "name": "javascript" }],
    "location": {
      "city": "Amsterdam",
      "country": "Netherlands",
      "address": "Amsterdam Netherlands",
      "countryCode": "NL",
      "coordinates": { "latitude": "52.37403", "longitude": "4.88969" }
    }
  },
  {
    "name": "React Amsterdam",
    "url": "https://react.amsterdam",
    "startDate": "2019-04-12",
    "endDate": "2019-04-12",
    "tags": [{ "id": "cjqv0ee5vr85u0950duq9u6tp", "name": "javascript" }],
    "location": {
      "city": "Amsterdam",
      "country": "Netherlands",
      "address": "Amsterdam Netherlands",
      "countryCode": "NL",
      "coordinates": { "latitude": "52.37403", "longitude": "4.88969" }
    }
  },
  {
    "name": "Smashing Conference",
    "url": "https://smashingconf.com/sf-2019/",
    "startDate": "2019-04-16",
    "endDate": "2019-04-17",
    "tags": [{ "id": "cjqv0ee5vr85u0950duq9u6tp", "name": "javascript" }],
    "location": {
      "city": "San Francisco",
      "country": "U.S.A.",
      "address": "San Francisco U.S.A.",
      "countryCode": "AR",
      "coordinates": { "latitude": "-31.42797", "longitude": "-62.08266" }
    }
  },
  {
    "name": "React Finland",
    "url": "https://react-finland.fi",
    "startDate": "2019-04-24",
    "endDate": "2019-04-26",
    "tags": [{ "id": "cjqv0ee5vr85u0950duq9u6tp", "name": "javascript" }],
    "location": {
      "city": "Helsinki",
      "country": "Finland",
      "address": "Helsinki Finland",
      "countryCode": "FI",
      "coordinates": { "latitude": "60.16952", "longitude": "24.93545" }
    }
  },
  {
    "name": "Elm in the Spring",
    "url": "https://www.elminthespring.org",
    "startDate": "2019-04-26",
    "endDate": "2019-04-26",
    "tags": [{ "id": "cjqv0ee5vr85u0950duq9u6tp", "name": "javascript" }],
    "location": {
      "city": "Chicago",
      "country": "U.S.A.",
      "address": "Chicago U.S.A.",
      "countryCode": "US",
      "coordinates": { "latitude": "41.85003", "longitude": "-87.65005" }
    }
  },
  {
    "name": "FrontConf - Munich Frontend Conference",
    "url": "https://frontconf.com",
    "startDate": "2019-04-27",
    "endDate": "2019-04-27",
    "tags": [{ "id": "cjqv0ee5vr85u0950duq9u6tp", "name": "javascript" }],
    "location": {
      "city": "Munich",
      "country": "Germany",
      "address": "Munich Germany",
      "countryCode": "DE",
      "coordinates": { "latitude": "48.13743", "longitude": "11.57549" }
    }
  },
  {
    "name": "ng-conf",
    "url": "https://www.ng-conf.org",
    "startDate": "2019-05-01",
    "endDate": "2019-05-03",
    "tags": [{ "id": "cjqv0ee5vr85u0950duq9u6tp", "name": "javascript" }],
    "location": {
      "city": "Salt Lake City",
      "country": "U.S.A.",
      "address": "Salt Lake City U.S.A.",
      "countryCode": "US",
      "coordinates": { "latitude": "40.76078", "longitude": "-111.89105" }
    }
  },
  {
    "name": "Uphill Conf",
    "url": "https://uphillconf.com",
    "startDate": "2019-05-02",
    "endDate": "2019-05-03",
    "tags": [{ "id": "cjqv0ee5vr85u0950duq9u6tp", "name": "javascript" }],
    "location": {
      "city": "Bern",
      "country": "Switzerland",
      "address": "Bern Switzerland",
      "countryCode": "CH",
      "coordinates": { "latitude": "46.94809", "longitude": "7.44744" }
    }
  },
  {
    "name": "CityJSConf",
    "url": "http://cityjsconf.org",
    "startDate": "2019-05-03",
    "endDate": "2019-05-03",
    "tags": [{ "id": "cjqv0ee5vr85u0950duq9u6tp", "name": "javascript" }],
    "location": {
      "city": "London",
      "country": "U.K.",
      "address": "London U.K.",
      "countryCode": "CA",
      "coordinates": { "latitude": "42.98339", "longitude": "-81.23304" }
    }
  },
  {
    "name": "ReactJS Girls",
    "url": "https://reactjsgirls.com/",
    "startDate": "2019-05-03",
    "endDate": "2019-05-03",
    "tags": [{ "id": "cjqv0ee5vr85u0950duq9u6tp", "name": "javascript" }],
    "location": {
      "city": "London",
      "country": "U.K.",
      "address": "London U.K.",
      "countryCode": "CA",
      "coordinates": { "latitude": "42.98339", "longitude": "-81.23304" }
    }
  },
  {
    "name": "International JavaScript Conference",
    "url": "https://javascript-conference.com/en",
    "startDate": "2019-05-13",
    "endDate": "2019-05-15",
    "tags": [{ "id": "cjqv0ee5vr85u0950duq9u6tp", "name": "javascript" }],
    "location": {
      "city": "London",
      "country": "U.K.",
      "address": "London U.K.",
      "countryCode": "CA",
      "coordinates": { "latitude": "42.98339", "longitude": "-81.23304" }
    }
  },
  {
    "name": "You Gotta Love Frontend",
    "url": "https://www.yougottalovefrontend.com",
    "startDate": "2019-05-16",
    "endDate": "2019-05-17",
    "tags": [{ "id": "cjqv0ee5vr85u0950duq9u6tp", "name": "javascript" }],
    "location": {
      "city": "Vilnius",
      "country": "Lithuania",
      "address": "Vilnius Lithuania",
      "countryCode": "LT",
      "coordinates": { "latitude": "54.68916", "longitude": "25.2798" }
    }
  },
  {
    "name": "FullStack NYC",
    "url": "https://skillsmatter.com/conferences/11077",
    "startDate": "2019-05-16",
    "endDate": "2019-05-17",
    "tags": [{ "id": "cjqv0ee5vr85u0950duq9u6tp", "name": "javascript" }],
    "location": {
      "city": "New York",
      "country": "U.S.A.",
      "address": "New York U.S.A.",
      "countryCode": "US",
      "coordinates": { "latitude": "40.7128", "longitude": "-74.0060" }
    }
  },
  {
    "name": "Newcrafts",
    "url": "http://ncrafts.io",
    "startDate": "2019-05-16",
    "endDate": "2019-05-17",
    "tags": [{ "id": "cjqv0ee5vr85u0950duq9u6tp", "name": "javascript" }],
    "location": {
      "city": "Paris",
      "country": "France",
      "address": "Paris France",
      "countryCode": "CA",
      "coordinates": { "latitude": "43.2", "longitude": "-80.38333" }
    }
  },
  {
    "name": "Frontend United",
    "url": "https://www.frontendunited.org",
    "startDate": "2019-05-17",
    "endDate": "2019-05-18",
    "tags": [{ "id": "cjqv0ee5vr85u0950duq9u6tp", "name": "javascript" }],
    "location": {
      "city": "Utrecht",
      "country": "Netherlands",
      "address": "Utrecht Netherlands",
      "countryCode": "NL",
      "coordinates": { "latitude": "52.09083", "longitude": "5.12222" }
    }
  },
  {
    "name": "ReactEurope",
    "url": "https://www.react-europe.org",
    "startDate": "2019-05-23",
    "endDate": "2019-05-24",
    "tags": [{ "id": "cjqv0ee5vr85u0950duq9u6tp", "name": "javascript" }],
    "location": {
      "city": "Paris",
      "country": "France",
      "address": "Paris France",
      "countryCode": "CA",
      "coordinates": { "latitude": "43.2", "longitude": "-80.38333" }
    }
  },
  {
    "name": "HolyJS Piter",
    "url": "https://holyjs-piter.ru/en",
    "startDate": "2019-05-24",
    "endDate": "2019-05-25",
    "tags": [{ "id": "cjqv0ee5vr85u0950duq9u6tp", "name": "javascript" }],
    "location": {
      "city": "Saint Petersburg",
      "country": "Russia",
      "address": "Saint Petersburg Russia",
      "countryCode": "RU",
      "coordinates": { "latitude": "59.93863", "longitude": "30.31413" }
    }
  },
  {
    "name": "ngVikings",
    "url": "https://ngvikings.org/",
    "startDate": "2019-05-27",
    "endDate": "2019-05-28",
    "tags": [{ "id": "cjqv0ee5vr85u0950duq9u6tp", "name": "javascript" }],
    "location": {
      "city": "Copenhagen",
      "country": "Denmark",
      "address": "Copenhagen Denmark",
      "countryCode": "DK",
      "coordinates": { "latitude": "55.67594", "longitude": "12.56553" }
    }
  },
  {
    "name": "JSNation",
    "url": "http://amsterdamjs.com",
    "startDate": "2019-05-31",
    "endDate": "2019-06-01",
    "tags": [{ "id": "cjqv0ee5vr85u0950duq9u6tp", "name": "javascript" }],
    "location": {
      "city": "Amsterdam",
      "country": "Netherlands",
      "address": "Amsterdam Netherlands",
      "countryCode": "NL",
      "coordinates": { "latitude": "52.37403", "longitude": "4.88969" }
    }
  },
  {
    "name": "JSConf EU",
    "url": "https://2019.jsconf.eu",
    "startDate": "2019-06-01",
    "endDate": "2019-06-02",
    "tags": [{ "id": "cjqv0ee5vr85u0950duq9u6tp", "name": "javascript" }],
    "location": {
      "city": "Berlin",
      "country": "Germany",
      "address": "Berlin Germany",
      "countryCode": "DE",
      "coordinates": { "latitude": "52.52437", "longitude": "13.41053" }
    }
  },
  {
    "name": "Pixel Pioneers Belfast",
    "url": "https://pixelpioneers.co",
    "startDate": "2019-06-07",
    "endDate": "2019-06-07",
    "tags": [{ "id": "cjqv0ee5vr85u0950duq9u6tp", "name": "javascript" }],
    "location": {
      "city": "Belfast",
      "country": "U.K.",
      "address": "Belfast U.K.",
      "countryCode": "CA",
      "coordinates": { "latitude": "46.08341", "longitude": "-62.88197" }
    }
  },
  {
    "name": "ReactNext",
    "url": "https://react-next.com/",
    "startDate": "2019-06-11",
    "endDate": "2019-06-11",
    "tags": [{ "id": "cjqv0ee5vr85u0950duq9u6tp", "name": "javascript" }],
    "location": {
      "city": "Tel Aviv",
      "country": "Israel",
      "address": "Tel Aviv Israel",
      "countryCode": "IL",
      "coordinates": { "latitude": "32.08088", "longitude": "34.78057" }
    }
  },
  {
    "name": "React Day Norway",
    "url": "https://reactnorway.com/",
    "startDate": "2019-06-12",
    "endDate": "2019-06-12",
    "tags": [{ "id": "cjqv0ee5vr85u0950duq9u6tp", "name": "javascript" }],
    "location": {
      "city": "Larvik",
      "country": "Norway",
      "address": "Larvik Norway",
      "countryCode": "NO",
      "coordinates": { "latitude": "59.05328", "longitude": "10.03517" }
    }
  },
  {
    "name": "JSConf.Asia",
    "url": "https://2019.jsconf.asia",
    "startDate": "2019-06-14",
    "endDate": "2019-06-16",
    "tags": [{ "id": "cjqv0ee5vr85u0950duq9u6tp", "name": "javascript" }],
    "location": {
      "city": "Singapore",
      "country": "Singapore",
      "address": "Singapore Singapore",
      "countryCode": "SG",
      "coordinates": { "latitude": "1.28967", "longitude": "103.85007" }
    }
  },
  {
    "name": "Berlin Buzzwords",
    "url": "https://berlinbuzzwords.de",
    "startDate": "2019-06-16",
    "endDate": "2019-06-18",
    "tags": [{ "id": "cjqv0ee5vr85u0950duq9u6tp", "name": "javascript" }],
    "location": {
      "city": "Berlin",
      "country": "Germany",
      "address": "Berlin Germany",
      "countryCode": "DE",
      "coordinates": { "latitude": "52.52437", "longitude": "13.41053" }
    }
  },
  {
    "name": "NodeConf Colombia",
    "url": "https://colombia.nodeconf.com/",
    "startDate": "2019-06-21",
    "endDate": "2019-06-22",
    "tags": [{ "id": "cjqv0ee5vr85u0950duq9u6tp", "name": "javascript" }],
    "location": {
      "city": "Medellín",
      "country": "Colombia",
      "address": "Medellín Colombia",
      "countryCode": "CO",
      "coordinates": { "latitude": "6.25184", "longitude": "-75.56359" }
    }
  },
  {
    "name": "enterJS",
    "url": "https://www.enterjs.de/index.php",
    "startDate": "2019-06-25",
    "endDate": "2019-06-28",
    "tags": [{ "id": "cjqv0ee5vr85u0950duq9u6tp", "name": "javascript" }],
    "location": {
      "city": "Darmstadt",
      "country": "Germany",
      "address": "Darmstadt Germany",
      "countryCode": "DE",
      "coordinates": { "latitude": "49.87167", "longitude": "8.65027" }
    }
  },
  {
    "name": "Smashing Conference",
    "url": "https://smashingconf.com/toronto-2019/",
    "startDate": "2019-06-25",
    "endDate": "2019-06-26",
    "tags": [{ "id": "cjqv0ee5vr85u0950duq9u6tp", "name": "javascript" }],
    "location": {
      "city": "Toronto",
      "country": "Canada",
      "address": "Toronto Canada",
      "countryCode": "AU",
      "coordinates": { "latitude": "-33.01357", "longitude": "151.59373" }
    }
  },
  {
    "name": "ngSpain",
    "url": "https://www.ngspain.com",
    "startDate": "2019-06-28",
    "endDate": "2019-06-30",
    "tags": [{ "id": "cjqv0ee5vr85u0950duq9u6tp", "name": "javascript" }],
    "location": {
      "city": "Madrid",
      "country": "Spain",
      "address": "Madrid Spain",
      "countryCode": "CO",
      "coordinates": { "latitude": "4.73245", "longitude": "-74.26419" }
    }
  },
  {
    "name": "FullStack London",
    "url": "https://skillsmatter.com/conferences/11213-fullstack-london-2019-the-conference-on-javascript-node-and-internet-of-things",
    "startDate": "2019-07-10",
    "endDate": "2019-07-12",
    "tags": [{ "id": "cjqv0ee5vr85u0950duq9u6tp", "name": "javascript" }],
    "location": {
      "city": "London",
      "country": "U.K.",
      "address": "London U.K.",
      "countryCode": "CA",
      "coordinates": { "latitude": "42.98339", "longitude": "-81.23304" }
    }
  },
  {
    "name": "Chain React",
    "url": "https://infinite.red/ChainReactConf",
    "startDate": "2019-07-11",
    "endDate": "2019-07-12",
    "tags": [{ "id": "cjqv0ee5vr85u0950duq9u6tp", "name": "javascript" }],
    "location": {
      "city": "Portland",
      "country": "U.S.A.",
      "address": "Portland U.S.A.",
      "countryCode": "AU",
      "coordinates": { "latitude": "-38.3462", "longitude": "141.60257" }
    }
  },
  {
    "name": "JSCamp Barcelona",
    "url": "https://jscamp.tech",
    "startDate": "2019-07-18",
    "endDate": "2019-07-19",
    "tags": [{ "id": "cjqv0ee5vr85u0950duq9u6tp", "name": "javascript" }],
    "location": {
      "city": "Barcelona",
      "country": "Spain",
      "address": "Barcelona Spain",
      "countryCode": "ES",
      "coordinates": { "latitude": "41.38879", "longitude": "2.15899" }
    }
  },
  {
    "name": "OdessaJS",
    "url": "http://odessajs.org/",
    "startDate": "2019-07-20",
    "endDate": "2019-07-21",
    "tags": [{ "id": "cjqv0ee5vr85u0950duq9u6tp", "name": "javascript" }],
    "location": {
      "city": "Odessa",
      "country": "Ukraine",
      "address": "Odessa Ukraine",
      "countryCode": "UA",
      "coordinates": { "latitude": "46.47747", "longitude": "30.73262" }
    }
  },
  {
    "name": "JSConf US",
    "url": "https://2019.jsconf.us/",
    "startDate": "2019-08-11",
    "endDate": "2019-08-14",
    "tags": [{ "id": "cjqv0ee5vr85u0950duq9u6tp", "name": "javascript" }],
    "location": {
      "city": "Carlsbad",
      "country": "U.S.A.",
      "address": "Carlsbad U.S.A.",
      "countryCode": "US",
      "coordinates": { "latitude": "33.15809", "longitude": "-117.35059" }
    }
  },
  {
    "name": "React India",
    "url": "https://www.reactindia.io/",
    "startDate": "2019-08-23",
    "endDate": "2019-08-25",
    "tags": [{ "id": "cjqv0ee5vr85u0950duq9u6tp", "name": "javascript" }],
    "location": {
      "city": "Goa",
      "country": "India",
      "address": "Goa India",
      "countryCode": "PH",
      "coordinates": { "latitude": "13.6978", "longitude": "123.4892" }
    }
  },
  {
    "name": "Frontend Conference Zurich",
    "url": "https://www.frontendconf.ch",
    "startDate": "2019-08-29",
    "endDate": "2019-08-30",
    "tags": [{ "id": "cjqv0ee5vr85u0950duq9u6tp", "name": "javascript" }],
    "location": {
      "city": "Zurich",
      "country": "Switzerland",
      "address": "Zurich Switzerland",
      "countryCode": "PL",
      "coordinates": { "latitude": "47.3769", "longitude": "8.5417" }
    }
  },
  {
    "name": "NG-DE",
    "url": "https://ng-de.org",
    "startDate": "2019-08-30",
    "endDate": "2019-08-31",
    "tags": [{ "id": "cjqv0ee5vr85u0950duq9u6tp", "name": "javascript" }],
    "location": {
      "city": "Berlin",
      "country": "Germany",
      "address": "Berlin Germany",
      "countryCode": "DE",
      "coordinates": { "latitude": "52.52437", "longitude": "13.41053" }
    }
  },
  {
    "name": "ComponentsConf",
    "url": "https://www.componentsconf.com.au",
    "startDate": "2019-09-06",
    "endDate": "2019-09-06",
    "tags": [{ "id": "cjqv0ee5vr85u0950duq9u6tp", "name": "javascript" }],
    "location": {
      "city": "Melbourne",
      "country": "Australia",
      "address": "Melbourne Australia",
      "countryCode": "AU",
      "coordinates": { "latitude": "-37.814", "longitude": "144.96332" }
    }
  },
  {
    "name": "Smashing Conference",
    "url": "https://smashingconf.com/freiburg-2019/",
    "startDate": "2019-09-09",
    "endDate": "2019-09-10",
    "tags": [{ "id": "cjqv0ee5vr85u0950duq9u6tp", "name": "javascript" }],
    "location": {
      "city": "Freiburg",
      "country": "Germany",
      "address": "Freiburg Germany",
      "countryCode": "DE",
      "coordinates": { "latitude": "47.9959", "longitude": "7.85222" }
    }
  },
  {
    "name": "Smashing Conference",
    "url": "https://smashingconf.com/ny-2019/",
    "startDate": "2019-09-15",
    "endDate": "2019-10-16",
    "tags": [{ "id": "cjqv0ee5vr85u0950duq9u6tp", "name": "javascript" }],
    "location": {
      "city": "New York",
      "country": "U.S.A.",
      "address": "New York U.S.A.",
      "countryCode": "US",
      "coordinates": { "latitude": "40.7128", "longitude": "-74.0060" }
    }
  },
  {
    "name": "JSConf Budapest",
    "url": "https://jsconfbp.com/",
    "startDate": "2019-09-26",
    "endDate": "2019-09-27",
    "tags": [{ "id": "cjqv0ee5vr85u0950duq9u6tp", "name": "javascript" }],
    "location": {
      "city": "Budapest",
      "country": "Hungary",
      "address": "Budapest Hungary",
      "countryCode": "HU",
      "coordinates": { "latitude": "47.49801", "longitude": "19.03991" }
    }
  },
  {
    "name": "Nordic.js",
    "url": "http://nordicjs.com",
    "startDate": "2019-10-10",
    "endDate": "2019-10-11",
    "tags": [{ "id": "cjqv0ee5vr85u0950duq9u6tp", "name": "javascript" }],
    "location": {
      "city": "Stockholm",
      "country": "Sweden",
      "address": "Stockholm Sweden",
      "countryCode": "SE",
      "coordinates": { "latitude": "59.33258", "longitude": "18.0649" }
    }
  },
  {
    "name": "dotJS",
    "url": "https://2019.dotjs.io",
    "startDate": "2019-12-05",
    "endDate": "2019-12-06",
    "tags": [{ "id": "cjqv0ee5vr85u0950duq9u6tp", "name": "javascript" }],
    "location": {
      "city": "Paris",
      "country": "France",
      "address": "Paris France",
      "countryCode": "CA",
      "coordinates": { "latitude": "43.2", "longitude": "-80.38333" }
    }
  }
]
